cities:
  - name: Pittsburgh              # The human-readable label for the location
    url_name: pgh                 # the subdomain string
    search_locale: "Allegheny"    # this is the search server's name for the region
    primary_color:   "#F5DC0F"    # The dominant color for the location
    secondary_color: "#000000"    # The secondary color for the location
    center:                       # This is the default location for the map
      lng: -79.942907              #  --
      lat: 40.441544               #  --
    bounding_box:                 # This is the bounding box for constraining search
      sw_lat: 40.194352           #  --
      sw_lng: -80.360873          #  --
      ne_lat: 40.674935           #  --
      ne_lng: -79.688761          #  --
    geojson: "data/pgh.json"      # The relative path for the geojson boundary of the object

  - name: San Francisco
    url_name: sf
    search_locale: "San_Fran"    # this is the search server's name for the region
    primary_color:   "#c41230"
    secondary_color: "#fdbf57"
    center:
      lat: 37.8008602
      lng: -122.4008237
    bounding_box:
      sw_lat: 37.41969024129289
      sw_lng: -122.56951903458685
      ne_lat: 37.89132854978251
      ne_lng: -121.8944091629237
    geojson: "data/sf.json"      # The relative path for the geojson boundary of the object
  
  - name: New York City
    search_locale: "New_York"    # this is the search server's name for the region
    url_name: nyc
    primary_color:   "#003884"
    secondary_color: "#ff6600"
    center:
      lng: -73.9675438
      lat: 40.7828687
    bounding_box: 
      sw_lat: 40.477399
      sw_lng: -74.25909
      ne_lat: 40.917577
      ne_lng: -73.700272
    geojson: "data/nyc.json"      # The relative pat

  